[
  {
    "id": "1",
    "name": "Manipal Hospital Whitefield",
    "distance": 1.2,
    "latitude": 12.9897,
    "longitude": 77.7253,
    "address": "ITPL Main Rd, KIADB Export Promotion Industrial Area, Whitefield, Bangalore",
    "contact": "+91-80-6629-6629",
    "equipment": ["Ventilator", "ICU", "CT Scan", "MRI", "Defibrillator", "Oxygen", "Cardiac Monitor", "Cath Lab"],
    "specialties": ["Cardiology", "Emergency", "Neurology", "Orthopedics"]
  },
  {
    "id": "2",
    "name": "Fortis Hospital Bannerghatta Road",
    "distance": 1.5,
    "latitude": 12.9279,
    "longitude": 77.6271,
    "address": "154/9, Opposite IIM, Bannerghatta Road, Bangalore",
    "contact": "+91-80-6621-4444",
    "equipment": ["Ventilator", "ICU", "CT Scan", "MRI", "Oxygen", "Defibrillator", "Cardiac Monitor", "Dialysis", "Cath Lab"],
    "specialties": ["Cardiology", "Emergency", "Neurology", "Orthopedics", "Gastroenterology"]
  },
  {
    "id": "3",
    "name": "Apollo Hospitals Bannerghatta",
    "distance": 1.8,
    "latitude": 12.9252,
    "longitude": 77.6309,
    "address": "154/11, Opp. IIM-B, Bannerghatta Road, Bangalore",
    "contact": "+91-80-2670-1066",
    "equipment": ["Ventilator", "ICU", "CT Scan", "MRI", "Oxygen", "Defibrillator", "Cardiac Monitor", "Cath Lab", "Dialysis"],
    "specialties": ["Cardiology", "Emergency", "Neurology", "Oncology"]
  },
  {
    "id": "4",
    "name": "Columbia Asia Hospital Whitefield",
    "distance": 2.1,
    "latitude": 12.9923,
    "longitude": 77.7503,
    "address": "Survey No. 10P & 12P, Ramagondanahalli, Varthur Hobli, Whitefield, Bangalore",
    "contact": "+91-80-6614-5555",
    "equipment": ["ICU", "CT Scan", "X-Ray", "Oxygen", "Defibrillator", "Cardiac Monitor"],
    "specialties": ["Emergency", "General Medicine", "Pediatrics"]
  },
  {
    "id": "5",
    "name": "Narayana Multispeciality Hospital HSR Layout",
    "distance": 2.3,
    "latitude": 12.9150,
    "longitude": 77.6420,
    "address": "258/A, Bommasandra Industrial Area, Hosur Road, Bangalore",
    "contact": "+91-80-7122-2222",
    "equipment": ["Ventilator", "ICU", "CT Scan", "MRI", "Oxygen", "Defibrillator", "Cardiac Monitor", "Cath Lab"],
    "specialties": ["Cardiology", "Emergency", "Neurology", "Trauma"]
  },
  {
    "id": "6",
    "name": "Sakra World Hospital",
    "distance": 2.5,
    "latitude": 12.9610,
    "longitude": 77.7065,
    "address": "SY NO 52/2 & 52/3, Devarabeesanahalli, Varthur Hobli, Bangalore",
    "contact": "+91-80-4969-4969",
    "equipment": ["Ventilator", "ICU", "CT Scan", "MRI", "Oxygen", "Defibrillator", "Cardiac Monitor", "Cath Lab", "Dialysis"],
    "specialties": ["Cardiology", "Emergency", "Neurology", "Orthopedics", "Oncology"]
  },
  {
    "id": "7",
    "name": "St. John's Medical College Hospital",
    "distance": 2.7,
    "latitude": 12.9310,
    "longitude": 77.6113,
    "address": "Sarjapur Road, Koramangala, Bangalore",
    "contact": "+91-80-4966-6666",
    "equipment": ["Ventilator", "ICU", "CT Scan", "X-Ray", "Oxygen", "Defibrillator", "Cardiac Monitor"],
    "specialties": ["Emergency", "General Medicine", "Surgery"]
  },
  {
    "id": "8",
    "name": "BGS Gleneagles Global Hospital",
    "distance": 3.0,
    "latitude": 12.8941,
    "longitude": 77.5014,
    "address": "67, Uttarahalli Road, Kengeri, Bangalore",
    "contact": "+91-80-2227-7979",
    "equipment": ["Ventilator", "ICU", "CT Scan", "MRI", "Oxygen", "Defibrillator", "Cardiac Monitor", "Cath Lab"],
    "specialties": ["Cardiology", "Emergency", "Neurology", "Oncology"]
  },
  {
    "id": "9",
    "name": "Aster CMI Hospital",
    "distance": 3.2,
    "latitude": 13.0469,
    "longitude": 77.6208,
    "address": "43/2, New Airport Road, NH 7, Sahakara Nagar, Bangalore",
    "contact": "+91-80-4344-4444",
    "equipment": ["Ventilator", "ICU", "CT Scan", "MRI", "Oxygen", "Defibrillator", "Cardiac Monitor", "Cath Lab", "Dialysis"],
    "specialties": ["Cardiology", "Emergency", "Neurology", "Gastroenterology"]
  },
  {
    "id": "10",
    "name": "Mallya Hospital",
    "distance": 3.5,
    "latitude": 12.9784,
    "longitude": 77.5937,
    "address": "2, Vittal Mallya Road, Bangalore",
    "contact": "+91-80-2227-7979",
    "equipment": ["ICU", "CT Scan", "X-Ray", "Oxygen", "Defibrillator", "Cardiac Monitor"],
    "specialties": ["Emergency", "General Medicine", "Orthopedics"]
  },
  {
    "id": "11",
    "name": "Cloudnine Hospital Jayanagar",
    "distance": 3.7,
    "latitude": 12.9259,
    "longitude": 77.5833,
    "address": "1533, 9th Main, 3rd Block, Jayanagar, Bangalore",
    "contact": "+91-80-4855-4855",
    "equipment": ["ICU", "Ventilator", "Oxygen", "Defibrillator", "Cardiac Monitor"],
    "specialties": ["Obstetrics", "Gynecology", "Pediatrics", "Emergency"]
  },
  {
    "id": "12",
    "name": "Sparsh Hospital Yeshwanthpur",
    "distance": 4.0,
    "latitude": 13.0307,
    "longitude": 77.5437,
    "address": "29P, Tumkur Main Road, Yeshwanthpur, Bangalore",
    "contact": "+91-80-4315-4444",
    "equipment": ["ICU", "CT Scan", "X-Ray", "Oxygen", "Defibrillator", "Cardiac Monitor"],
    "specialties": ["Orthopedics", "Emergency", "Spine Surgery"]
  },
  {
    "id": "13",
    "name": "Vikram Hospital Mysore Road",
    "distance": 4.2,
    "latitude": 12.9854,
    "longitude": 77.5797,
    "address": "No.70/1, Millers Road, Vasanth Nagar, Bangalore",
    "contact": "+91-80-2220-0000",
    "equipment": ["Ventilator", "ICU", "CT Scan", "Oxygen", "Defibrillator", "Cardiac Monitor"],
    "specialties": ["Cardiology", "Emergency", "Neurology"]
  },
  {
    "id": "14",
    "name": "Motherhood Hospital Indiranagar",
    "distance": 4.5,
    "latitude": 12.9716,
    "longitude": 77.6412,
    "address": "#466, 100 Feet Road, Indiranagar, Bangalore",
    "contact": "+91-80-4855-5000",
    "equipment": ["ICU", "Ventilator", "Oxygen", "Defibrillator", "Cardiac Monitor"],
    "specialties": ["Obstetrics", "Gynecology", "Pediatrics", "Emergency"]
  },
  {
    "id": "15",
    "name": "HCG Cancer Hospital Kalinga Rao Road",
    "distance": 4.7,
    "latitude": 12.9925,
    "longitude": 77.6001,
    "address": "Tower 3, Sampangi Rama Nagar, Bangalore",
    "contact": "+91-80-4660-4660",
    "equipment": ["ICU", "CT Scan", "MRI", "Oxygen", "Defibrillator", "Cardiac Monitor"],
    "specialties": ["Oncology", "Emergency", "Radiation Therapy"]
  },
  {
    "id": "16",
    "name": "Ramaiah Memorial Hospital",
    "distance": 5.0,
    "latitude": 13.0201,
    "longitude": 77.5645,
    "address": "New BEL Road, MSRIT Post, Bangalore",
    "contact": "+91-80-2360-9000",
    "equipment": ["Ventilator", "ICU", "CT Scan", "MRI", "Oxygen", "Defibrillator", "Cardiac Monitor", "Dialysis"],
    "specialties": ["Cardiology", "Emergency", "Neurology", "Trauma"]
  },
  {
    "id": "17",
    "name": "Sagar Hospital Jayanagar",
    "distance": 5.2,
    "latitude": 12.9254,
    "longitude": 77.5817,
    "address": "44/54, 30th Cross, Jayanagar, Bangalore",
    "contact": "+91-80-2663-0000",
    "equipment": ["Ventilator", "ICU", "CT Scan", "Oxygen", "Defibrillator", "Cardiac Monitor"],
    "specialties": ["Cardiology", "Emergency", "Neurology"]
  },
  {
    "id": "18",
    "name": "Bangalore Baptist Hospital",
    "distance": 5.5,
    "latitude": 13.0358,
    "longitude": 77.5972,
    "address": "Bellary Road, Hebbal, Bangalore",
    "contact": "+91-80-2296-0480",
    "equipment": ["ICU", "CT Scan", "X-Ray", "Oxygen", "Defibrillator", "Cardiac Monitor"],
    "specialties": ["Emergency", "General Medicine", "Surgery"]
  },
  {
    "id": "19",
    "name": "KIMS Hospital Bangalore",
    "distance": 5.7,
    "latitude": 12.9520,
    "longitude": 77.5698,
    "address": "5/112, MLA Colony Road, V V Puram, Bangalore",
    "contact": "+91-80-2667-0000",
    "equipment": ["Ventilator", "ICU", "CT Scan", "MRI", "Oxygen", "Defibrillator", "Cardiac Monitor"],
    "specialties": ["Cardiology", "Emergency", "Neurology", "Nephrology"]
  },
  {
    "id": "20",
    "name": "Rangadore Memorial Hospital",
    "distance": 6.0,
    "latitude": 12.9429,
    "longitude": 77.5670,
    "address": "1st Cross, Shankarapuram, Basavanagudi, Bangalore",
    "contact": "+91-80-2662-2266",
    "equipment": ["ICU", "CT Scan", "X-Ray", "Oxygen", "Defibrillator", "Cardiac Monitor"],
    "specialties": ["Emergency", "General Medicine", "Surgery"]
  },
  {
    "id": "21",
    "name": "Motherhood Hospital Lullu Mall",
    "distance": 6.2,
    "latitude": 12.9986,
    "longitude": 77.5526,
    "address": "Lullu International Shopping Mall, Rajajinagar, Bangalore",
    "contact": "+91-80-4855-5111",
    "equipment": ["ICU", "Ventilator", "Oxygen", "Defibrillator", "Cardiac Monitor"],
    "specialties": ["Obstetrics", "Gynecology", "Pediatrics", "Emergency"]
  },
  {
    "id": "22",
    "name": "Kauvery Hospital Electronic City",
    "distance": 6.5,
    "latitude": 12.8454,
    "longitude": 77.6605,
    "address": "Survey No. 92/1A & 92/1B, Hewlett Packard Avenue, Electronic City, Bangalore",
    "contact": "+91-80-6801-6801",
    "equipment": ["Ventilator", "ICU", "CT Scan", "MRI", "Oxygen", "Defibrillator", "Cardiac Monitor", "Dialysis"],
    "specialties": ["Cardiology", "Emergency", "Neurology", "Trauma"]
  },
  {
    "id": "23",
    "name": "Rainbow Children's Hospital Marathahalli",
    "distance": 6.7,
    "latitude": 12.9591,
    "longitude": 77.6980,
    "address": "Marathahalli-Sarjapur Outer Ring Road, Bangalore",
    "contact": "+91-80-4934-4444",
    "equipment": ["ICU", "Ventilator", "Oxygen", "Defibrillator", "Cardiac Monitor"],
    "specialties": ["Pediatrics", "Neonatology", "Emergency"]
  },
  {
    "id": "24",
    "name": "Brindavan Hospital and Trauma Care Centre",
    "distance": 7.0,
    "latitude": 13.0048,
    "longitude": 77.5721,
    "address": "43, 16th Main Road, Malleswaram, Bangalore",
    "contact": "+91-80-2334-4344",
    "equipment": ["ICU", "CT Scan", "X-Ray", "Oxygen", "Defibrillator", "Cardiac Monitor"],
    "specialties": ["Trauma", "Emergency", "Orthopedics"]
  },
  {
    "id": "25",
    "name": "Cloudnine Hospital Kalyan Nagar",
    "distance": 7.2,
    "latitude": 13.0280,
    "longitude": 77.6387,
    "address": "1st Floor, C/O Manasa Speciality Hospital, Outer Ring Road, Kalyan Nagar, Bangalore",
    "contact": "+91-80-4855-4856",
    "equipment": ["ICU", "Ventilator", "Oxygen", "Defibrillator", "Cardiac Monitor"],
    "specialties": ["Obstetrics", "Gynecology", "Pediatrics", "Emergency"]
  },
  {
    "id": "26",
    "name": "Pristine Hospital",
    "distance": 7.5,
    "latitude": 12.9726,
    "longitude": 77.5946,
    "address": "Near Anand Rao Circle, Bangalore",
    "contact": "+91-80-2226-8888",
    "equipment": ["ICU", "CT Scan", "X-Ray", "Oxygen", "Defibrillator", "Cardiac Monitor"],
    "specialties": ["Emergency", "General Medicine", "Surgery"]
  },
  {
    "id": "27",
    "name": "Hosmat Hospital",
    "distance": 7.7,
    "latitude": 12.9610,
    "longitude": 77.6098,
    "address": "45 Magrath Road, Off Richmond Road, Bangalore",
    "contact": "+91-80-2573-4347",
    "equipment": ["ICU", "CT Scan", "X-Ray", "Oxygen", "Defibrillator", "Cardiac Monitor"],
    "specialties": ["Orthopedics", "Trauma", "Emergency", "Spine Surgery"]
  },
  {
    "id": "28",
    "name": "Shanti Hospital",
    "distance": 8.0,
    "latitude": 12.9916,
    "longitude": 77.5946,
    "address": "No 8, 1st Main Road, Rajmahal Vilas Extension, Bangalore",
    "contact": "+91-80-2345-6789",
    "equipment": ["ICU", "X-Ray", "Oxygen", "Defibrillator", "Cardiac Monitor"],
    "specialties": ["Emergency", "General Medicine"]
  },
  {
    "id": "29",
    "name": "Apollo Clinic JP Nagar",
    "distance": 8.2,
    "latitude": 12.9083,
    "longitude": 77.5858,
    "address": "14th Main Road, JP Nagar 3rd Phase, Bangalore",
    "contact": "+91-80-2659-4949",
    "equipment": ["X-Ray", "Oxygen", "Defibrillator", "Cardiac Monitor"],
    "specialties": ["Emergency", "General Medicine"]
  },
  {
    "id": "30",
    "name": "Sheela Multispeciality Hospital",
    "distance": 8.5,
    "latitude": 12.9716,
    "longitude": 77.6563,
    "address": "Old Madras Road, Near Indiranagar, Bangalore",
    "contact": "+91-80-2528-0444",
    "equipment": ["ICU", "CT Scan", "X-Ray", "Oxygen", "Defibrillator", "Cardiac Monitor"],
    "specialties": ["Emergency", "General Medicine", "Surgery"]
  },
  {
    "id": "31",
    "name": "Jindal Sanjeevani Multispeciality Hospital",
    "distance": 8.7,
    "latitude": 13.0397,
    "longitude": 77.5968,
    "address": "Bellary Road, Sahakara Nagar, Bangalore",
    "contact": "+91-80-2354-7272",
    "equipment": ["ICU", "CT Scan", "X-Ray", "Oxygen", "Defibrillator", "Cardiac Monitor"],
    "specialties": ["Emergency", "General Medicine", "Cardiology"]
  },
  {
    "id": "32",
    "name": "Adichunchanagiri Institute of Medical Sciences",
    "distance": 9.0,
    "latitude": 12.6186,
    "longitude": 76.6905,
    "address": "B G Nagar, Nagamangala Taluk, Mandya District",
    "contact": "+91-8234-287500",
    "equipment": ["Ventilator", "ICU", "CT Scan", "MRI", "Oxygen", "Defibrillator", "Cardiac Monitor"],
    "specialties": ["Cardiology", "Emergency", "Neurology", "Trauma"]
  },
  {
    "id": "33",
    "name": "Vydehi Institute of Medical Sciences",
    "distance": 9.2,
    "latitude": 12.9923,
    "longitude": 77.7510,
    "address": "Whitefield, Bangalore",
    "contact": "+91-80-2845-2999",
    "equipment": ["Ventilator", "ICU", "CT Scan", "MRI", "Oxygen", "Defibrillator", "Cardiac Monitor", "Dialysis"],
    "specialties": ["Cardiology", "Emergency", "Neurology", "Trauma"]
  },
  {
    "id": "34",
    "name": "Koshys Hospital",
    "distance": 9.5,
    "latitude": 12.9716,
    "longitude": 77.6060,
    "address": "67/1, Brigade Road, Bangalore",
    "contact": "+91-80-2559-7979",
    "equipment": ["ICU", "CT Scan", "X-Ray", "Oxygen", "Defibrillator", "Cardiac Monitor"],
    "specialties": ["Emergency", "General Medicine", "Surgery"]
  },
  {
    "id": "35",
    "name": "Hephzibah Hospital",
    "distance": 9.7,
    "latitude": 12.9567,
    "longitude": 77.5213,
    "address": "1st Cross, 2nd Main, Nayandahalli, Bangalore",
    "contact": "+91-80-2851-8888",
    "equipment": ["ICU", "X-Ray", "Oxygen", "Defibrillator", "Cardiac Monitor"],
    "specialties": ["Emergency", "General Medicine"]
  },
  {
    "id": "36",
    "name": "Manipal Hospital Sarjapur Road",
    "distance": 10.0,
    "latitude": 12.9142,
    "longitude": 77.6848,
    "address": "Sarjapur Main Road, Bellandur, Bangalore",
    "contact": "+91-80-6112-9999",
    "equipment": ["Ventilator", "ICU", "CT Scan", "MRI", "Oxygen", "Defibrillator", "Cardiac Monitor", "Cath Lab"],
    "specialties": ["Cardiology", "Emergency", "Neurology", "Orthopedics"]
  },
  {
    "id": "37",
    "name": "Fortis Hospital Cunningham Road",
    "distance": 10.2,
    "latitude": 12.9940,
    "longitude": 77.5871,
    "address": "14, Cunningham Road, Bangalore",
    "contact": "+91-80-6621-4444",
    "equipment": ["Ventilator", "ICU", "CT Scan", "MRI", "Oxygen", "Defibrillator", "Cardiac Monitor", "Dialysis"],
    "specialties": ["Cardiology", "Emergency", "Neurology", "Orthopedics"]
  },
  {
    "id": "38",
    "name": "Columbia Asia Hospital Hebbal",
    "distance": 10.5,
    "latitude": 13.0352,
    "longitude": 77.5977,
    "address": "Kirloskar Business Park, Bellary Road, Hebbal, Bangalore",
    "contact": "+91-80-6614-5757",
    "equipment": ["ICU", "CT Scan", "X-Ray", "Oxygen", "Defibrillator", "Cardiac Monitor"],
    "specialties": ["Emergency", "General Medicine", "Pediatrics"]
  },
  {
    "id": "39",
    "name": "Sagar Hospital Banashankari",
    "distance": 10.7,
    "latitude": 12.9253,
    "longitude": 77.5458,
    "address": "28/29, KIADB Main Road, Kumaraswamy Layout, Bangalore",
    "contact": "+91-80-2663-1111",
    "equipment": ["Ventilator", "ICU", "CT Scan", "Oxygen", "Defibrillator", "Cardiac Monitor"],
    "specialties": ["Cardiology", "Emergency", "Neurology"]
  },
  {
    "id": "40",
    "name": "Chinmaya Mission Hospital",
    "distance": 11.0,
    "latitude": 12.9716,
    "longitude": 77.6412,
    "address": "Indiranagar, Bangalore",
    "contact": "+91-80-2528-5000",
    "equipment": ["ICU", "CT Scan", "X-Ray", "Oxygen", "Defibrillator", "Cardiac Monitor"],
    "specialties": ["Emergency", "General Medicine", "Surgery"]
  },
  {
    "id": "41",
    "name": "Apollo Hospitals Sheshadripuram",
    "distance": 11.2,
    "latitude": 12.9932,
    "longitude": 77.5705,
    "address": "No 154/11, Sheshadripuram, Bangalore",
    "contact": "+91-80-2670-1077",
    "equipment": ["Ventilator", "ICU", "CT Scan", "MRI", "Oxygen", "Defibrillator", "Cardiac Monitor", "Cath Lab"],
    "specialties": ["Cardiology", "Emergency", "Neurology", "Oncology"]
  },
  {
    "id": "42",
    "name": "Spandana Hospital",
    "distance": 11.5,
    "latitude": 13.0048,
    "longitude": 77.5721,
    "address": "17th Cross, Malleshwaram, Bangalore",
    "contact": "+91-80-2334-5555",
    "equipment": ["ICU", "X-Ray", "Oxygen", "Defibrillator", "Cardiac Monitor"],
    "specialties": ["Emergency", "General Medicine"]
  },
  {
    "id": "43",
    "name": "Jnana Sanjeevini Medical Centre",
    "distance": 11.7,
    "latitude": 13.0048,
    "longitude": 77.5721,
    "address": "17th Cross, Malleswaram, Bangalore",
    "contact": "+91-80-2334-4567",
    "equipment": ["ICU", "X-Ray", "Oxygen", "Defibrillator", "Cardiac Monitor"],
    "specialties": ["Emergency", "General Medicine"]
  },
  {
    "id": "44",
    "name": "Seetha Nursing Home",
    "distance": 12.0,
    "latitude": 12.9541,
    "longitude": 77.6093,
    "address": "Wilson Garden, Bangalore",
    "contact": "+91-80-2222-3333",
    "equipment": ["ICU", "X-Ray", "Oxygen", "Defibrillator"],
    "specialties": ["Emergency", "General Medicine"]
  },
  {
    "id": "45",
    "name": "Gleneagles Global Health City",
    "distance": 12.2,
    "latitude": 12.8941,
    "longitude": 77.5014,
    "address": "Uttarahalli Road, Kengeri, Bangalore",
    "contact": "+91-80-2227-7979",
    "equipment": ["Ventilator", "ICU", "CT Scan", "MRI", "Oxygen", "Defibrillator", "Cardiac Monitor", "Cath Lab"],
    "specialties": ["Cardiology", "Emergency", "Neurology", "Oncology"]
  },
  {
    "id": "46",
    "name": "Ashwini Hospital",
    "distance": 12.5,
    "latitude": 13.0154,
    "longitude": 77.5945,
    "address": "R T Nagar, Bangalore",
    "contact": "+91-80-2353-6666",
    "equipment": ["ICU", "X-Ray", "Oxygen", "Defibrillator", "Cardiac Monitor"],
    "specialties": ["Emergency", "General Medicine"]
  },
  {
    "id": "47",
    "name": "Ayush Hospital",
    "distance": 12.7,
    "latitude": 12.9254,
    "longitude": 77.5833,
    "address": "Jayanagar 4th Block, Bangalore",
    "contact": "+91-80-2664-4444",
    "equipment": ["ICU", "CT Scan", "X-Ray", "Oxygen", "Defibrillator", "Cardiac Monitor"],
    "specialties": ["Emergency", "General Medicine", "Surgery"]
  },
  {
    "id": "48",
    "name": "Meenakshi Mission Hospital",
    "distance": 13.0,
    "latitude": 12.9716,
    "longitude": 77.5946,
    "address": "Lake Road, Bangalore",
    "contact": "+91-80-2212-3456",
    "equipment": ["ICU", "CT Scan", "X-Ray", "Oxygen", "Defibrillator", "Cardiac Monitor"],
    "specialties": ["Emergency", "General Medicine", "Cardiology"]
  },
  {
    "id": "49",
    "name": "Padmavathi Nursing Home",
    "distance": 13.2,
    "latitude": 12.9083,
    "longitude": 77.5858,
    "address": "JP Nagar, Bangalore",
    "contact": "+91-80-2659-8888",
    "equipment": ["ICU", "X-Ray", "Oxygen", "Defibrillator"],
    "specialties": ["Emergency", "General Medicine"]
  },
  {
    "id": "50",
    "name": "Medall Diagnostics and Hospital",
    "distance": 13.5,
    "latitude": 12.9150,
    "longitude": 77.6420,
    "address": "HSR Layout, Bangalore",
    "contact": "+91-80-4192-5555",
    "equipment": ["ICU", "CT Scan", "MRI", "X-Ray", "Oxygen", "Defibrillator", "Cardiac Monitor"],
    "specialties": ["Emergency", "General Medicine", "Diagnostics"]
  },
  {
    "id": "51",
    "name": "Kauvery Hospital Marathahalli",
    "distance": 13.7,
    "latitude": 12.9591,
    "longitude": 77.6980,
    "address": "Marathahalli Outer Ring Road, Bangalore",
    "contact": "+91-80-6801-6802",
    "equipment": ["Ventilator", "ICU", "CT Scan", "Oxygen", "Defibrillator", "Cardiac Monitor"],
    "specialties": ["Emergency", "General Medicine", "Cardiology"]
  },
  {
    "id": "52",
    "name": "People Tree Hospital",
    "distance": 14.0,
    "latitude": 12.8454,
    "longitude": 77.6605,
    "address": "Electronic City Phase 1, Bangalore",
    "contact": "+91-80-3535-9999",
    "equipment": ["ICU", "CT Scan", "X-Ray", "Oxygen", "Defibrillator", "Cardiac Monitor"],
    "specialties": ["Emergency", "General Medicine", "Surgery"]
  },
  {
    "id": "53",
    "name": "Columbia Asia Hospital Sarjapur Road",
    "distance": 14.2,
    "latitude": 12.9142,
    "longitude": 77.6848,
    "address": "Doddakannelli, Sarjapur Road, Bangalore",
    "contact": "+91-80-6614-6400",
    "equipment": ["ICU", "CT Scan", "X-Ray", "Oxygen", "Defibrillator", "Cardiac Monitor"],
    "specialties": ["Emergency", "General Medicine", "Pediatrics"]
  },
  {
    "id": "54",
    "name": "Vasan Healthcare Centre",
    "distance": 14.5,
    "latitude": 12.9716,
    "longitude": 77.5946,
    "address": "Richmond Road, Bangalore",
    "contact": "+91-80-4100-4100",
    "equipment": ["ICU", "X-Ray", "Oxygen", "Defibrillator"],
    "specialties": ["Emergency", "General Medicine"]
  },
  {
    "id": "55",
    "name": "Sanjay Gandhi Postgraduate Institute",
    "distance": 14.7,
    "latitude": 12.9716,
    "longitude": 77.5946,
    "address": "Yelahanka, Bangalore",
    "contact": "+91-80-2845-6789",
    "equipment": ["Ventilator", "ICU", "CT Scan", "MRI", "Oxygen", "Defibrillator", "Cardiac Monitor"],
    "specialties": ["Cardiology", "Emergency", "Neurology"]
  },
  {
    "id": "56",
    "name": "Narayana Institute of Cardiac Sciences",
    "distance": 15.0,
    "latitude": 12.8941,
    "longitude": 77.6605,
    "address": "Bommasandra, Hosur Road, Bangalore",
    "contact": "+91-80-2783-3333",
    "equipment": ["Ventilator", "ICU", "CT Scan", "MRI", "Oxygen", "Defibrillator", "Cardiac Monitor", "Cath Lab"],
    "specialties": ["Cardiology", "Emergency", "Cardiac Surgery"]
  },
  {
    "id": "57",
    "name": "Fortis La Femme Hospital",
    "distance": 15.2,
    "latitude": 12.9716,
    "longitude": 77.6412,
    "address": "14, Cunningham Road, Bangalore",
    "contact": "+91-80-6621-4545",
    "equipment": ["ICU", "Ventilator", "Oxygen", "Defibrillator", "Cardiac Monitor"],
    "specialties": ["Obstetrics", "Gynecology", "Pediatrics", "Emergency"]
  },
  {
    "id": "58",
    "name": "Rainbow Children's Hospital Banaswadi",
    "distance": 15.5,
    "latitude": 13.0110,
    "longitude": 77.6533,
    "address": "Banaswadi, Bangalore",
    "contact": "+91-80-4934-4445",
    "equipment": ["ICU", "Ventilator", "Oxygen", "Defibrillator", "Cardiac Monitor"],
    "specialties": ["Pediatrics", "Neonatology", "Emergency"]
  },
  {
    "id": "59",
    "name": "MS Ramaiah Narayana Heart Centre",
    "distance": 15.7,
    "latitude": 13.0201,
    "longitude": 77.5645,
    "address": "New BEL Road, Bangalore",
    "contact": "+91-80-2360-9001",
    "equipment": ["Ventilator", "ICU", "CT Scan", "MRI", "Oxygen", "Defibrillator", "Cardiac Monitor", "Cath Lab"],
    "specialties": ["Cardiology", "Emergency", "Cardiac Surgery"]
  },
  {
    "id": "60",
    "name": "Manipal Hospital Malleshwaram",
    "distance": 16.0,
    "latitude": 13.0048,
    "longitude": 77.5721,
    "address": "16th Cross, Malleshwaram, Bangalore",
    "contact": "+91-80-2334-6789",
    "equipment": ["Ventilator", "ICU", "CT Scan", "Oxygen", "Defibrillator", "Cardiac Monitor"],
    "specialties": ["Cardiology", "Emergency", "Neurology"]
  },
  {
    "id": "61",
    "name": "Apollo Specialty Hospitals",
    "distance": 16.2,
    "latitude": 12.9252,
    "longitude": 77.6309,
    "address": "Jayanagar, Bangalore",
    "contact": "+91-80-2663-5678",
    "equipment": ["Ventilator", "ICU", "CT Scan", "MRI", "Oxygen", "Defibrillator", "Cardiac Monitor"],
    "specialties": ["Cardiology", "Emergency", "Neurology", "Oncology"]
  },
  {
    "id": "62",
    "name": "Cloudnine Hospital Sahakara Nagar",
    "distance": 16.5,
    "latitude": 13.0469,
    "longitude": 77.6208,
    "address": "Sahakara Nagar, Bangalore",
    "contact": "+91-80-4855-4857",
    "equipment": ["ICU", "Ventilator", "Oxygen", "Defibrillator", "Cardiac Monitor"],
    "specialties": ["Obstetrics", "Gynecology", "Pediatrics", "Emergency"]
  },
  {
    "id": "63",
    "name": "Sparsh Hospital Electronics City",
    "distance": 16.7,
    "latitude": 12.8454,
    "longitude": 77.6605,
    "address": "Electronic City, Bangalore",
    "contact": "+91-80-4315-4445",
    "equipment": ["ICU", "CT Scan", "X-Ray", "Oxygen", "Defibrillator", "Cardiac Monitor"],
    "specialties": ["Orthopedics", "Emergency", "Spine Surgery"]
  },
  {
    "id": "64",
    "name": "Sagar Hospital Kumaraswamy Layout",
    "distance": 17.0,
    "latitude": 12.9253,
    "longitude": 77.5458,
    "address": "Kumaraswamy Layout, Bangalore",
    "contact": "+91-80-2663-1112",
    "equipment": ["Ventilator", "ICU", "CT Scan", "Oxygen", "Defibrillator", "Cardiac Monitor"],
    "specialties": ["Cardiology", "Emergency", "Neurology"]
  },
  {
    "id": "65",
    "name": "Cytecare Cancer Hospital",
    "distance": 17.2,
    "latitude": 12.9142,
    "longitude": 77.6848,
    "address": "Doddakannelli, Bangalore",
    "contact": "+91-80-6903-3000",
    "equipment": ["ICU", "CT Scan", "MRI", "Oxygen", "Defibrillator", "Cardiac Monitor"],
    "specialties": ["Oncology", "Emergency", "Radiation Therapy"]
  },
  {
    "id": "66",
    "name": "Aster RV Hospital",
    "distance": 17.5,
    "latitude": 12.9083,
    "longitude": 77.5858,
    "address": "JP Nagar, Bangalore",
    "contact": "+91-80-6621-2000",
    "equipment": ["Ventilator", "ICU", "CT Scan", "MRI", "Oxygen", "Defibrillator", "Cardiac Monitor", "Dialysis"],
    "specialties": ["Cardiology", "Emergency", "Neurology", "Gastroenterology"]
  },
  {
    "id": "67",
    "name": "Narayana Health City",
    "distance": 17.7,
    "latitude": 12.8941,
    "longitude": 77.6605,
    "address": "Bommasandra, Bangalore",
    "contact": "+91-80-2783-3334",
    "equipment": ["Ventilator", "ICU", "CT Scan", "MRI", "Oxygen", "Defibrillator", "Cardiac Monitor", "Cath Lab", "Dialysis"],
    "specialties": ["Cardiology", "Emergency", "Neurology", "Oncology", "Trauma"]
  },
  {
    "id": "68",
    "name": "Fortis Hospital Rajajinagar",
    "distance": 18.0,
    "latitude": 12.9986,
    "longitude": 77.5526,
    "address": "Rajajinagar, Bangalore",
    "contact": "+91-80-6621-4446",
    "equipment": ["Ventilator", "ICU", "CT Scan", "MRI", "Oxygen", "Defibrillator", "Cardiac Monitor", "Dialysis"],
    "specialties": ["Cardiology", "Emergency", "Neurology", "Orthopedics"]
  },
  {
    "id": "69",
    "name": "Motherhood Hospital Electronic City",
    "distance": 18.2,
    "latitude": 12.8454,
    "longitude": 77.6605,
    "address": "Electronic City, Bangalore",
    "contact": "+91-80-4855-5002",
    "equipment": ["ICU", "Ventilator", "Oxygen", "Defibrillator", "Cardiac Monitor"],
    "specialties": ["Obstetrics", "Gynecology", "Pediatrics", "Emergency"]
  },
  {
    "id": "70",
    "name": "Manipal Hospital HAL Airport Road",
    "distance": 18.5,
    "latitude": 12.9610,
    "longitude": 77.6565,
    "address": "HAL Airport Road, Bangalore",
    "contact": "+91-80-2525-2525",
    "equipment": ["Ventilator", "ICU", "CT Scan", "MRI", "Oxygen", "Defibrillator", "Cardiac Monitor", "Cath Lab"],
    "specialties": ["Cardiology", "Emergency", "Neurology", "Orthopedics"]
  },
  {
    "id": "71",
    "name": "Apollo Hospitals Seshadripuram",
    "distance": 18.7,
    "latitude": 12.9932,
    "longitude": 77.5705,
    "address": "Seshadripuram, Bangalore",
    "contact": "+91-80-2670-1078",
    "equipment": ["Ventilator", "ICU", "CT Scan", "MRI", "Oxygen", "Defibrillator", "Cardiac Monitor", "Cath Lab"],
    "specialties": ["Cardiology", "Emergency", "Neurology", "Oncology"]
  },
  {
    "id": "72",
    "name": "Sparsh Hospital Rajarajeshwari Nagar",
    "distance": 19.0,
    "latitude": 12.9253,
    "longitude": 77.5214,
    "address": "Rajarajeshwari Nagar, Bangalore",
    "contact": "+91-80-4315-4446",
    "equipment": ["ICU", "CT Scan", "X-Ray", "Oxygen", "Defibrillator", "Cardiac Monitor"],
    "specialties": ["Orthopedics", "Emergency", "Spine Surgery"]
  },
  {
    "id": "73",
    "name": "Cloudnine Hospital Malleshwaram",
    "distance": 19.2,
    "latitude": 13.0048,
    "longitude": 77.5721,
    "address": "Malleshwaram, Bangalore",
    "contact": "+91-80-4855-4858",
    "equipment": ["ICU", "Ventilator", "Oxygen", "Defibrillator", "Cardiac Monitor"],
    "specialties": ["Obstetrics", "Gynecology", "Pediatrics", "Emergency"]
  },
  {
    "id": "74",
    "name": "BGS Gleneagles Hospital Kengeri",
    "distance": 19.5,
    "latitude": 12.8941,
    "longitude": 77.5014,
    "address": "Kengeri, Bangalore",
    "contact": "+91-80-2227-7980",
    "equipment": ["Ventilator", "ICU", "CT Scan", "MRI", "Oxygen", "Defibrillator", "Cardiac Monitor", "Cath Lab"],
    "specialties": ["Cardiology", "Emergency", "Neurology", "Oncology"]
  },
  {
    "id": "75",
    "name": "Fortis Hospital HSR Layout",
    "distance": 19.7,
    "latitude": 12.9150,
    "longitude": 77.6420,
    "address": "HSR Layout, Bangalore",
    "contact": "+91-80-6621-4447",
    "equipment": ["Ventilator", "ICU", "CT Scan", "MRI", "Oxygen", "Defibrillator", "Cardiac Monitor", "Dialysis"],
    "specialties": ["Cardiology", "Emergency", "Neurology", "Orthopedics", "Gastroenterology"]
  },
  {
    "id": "76",
    "name": "Narayana Hrudayalaya",
    "distance": 20.0,
    "latitude": 12.8941,
    "longitude": 77.6605,
    "address": "Bommasandra, Bangalore",
    "contact": "+91-80-2783-3335",
    "equipment": ["Ventilator", "ICU", "CT Scan", "MRI", "Oxygen", "Defibrillator", "Cardiac Monitor", "Cath Lab", "Dialysis"],
    "specialties": ["Cardiology", "Emergency", "Cardiac Surgery", "Trauma"]
  },
  {
    "id": "77",
    "name": "Sagar Hospital BTM Layout",
    "distance": 20.2,
    "latitude": 12.9165,
    "longitude": 77.6101,
    "address": "BTM Layout, Bangalore",
    "contact": "+91-80-2663-1113",
    "equipment": ["Ventilator", "ICU", "CT Scan", "Oxygen", "Defibrillator", "Cardiac Monitor"],
    "specialties": ["Cardiology", "Emergency", "Neurology"]
  },
  {
    "id": "78",
    "name": "Aster Clinic Yelahanka",
    "distance": 20.5,
    "latitude": 13.1007,
    "longitude": 77.5963,
    "address": "Yelahanka, Bangalore",
    "contact": "+91-80-4344-4445",
    "equipment": ["ICU", "X-Ray", "Oxygen", "Defibrillator", "Cardiac Monitor"],
    "specialties": ["Emergency", "General Medicine", "Pediatrics"]
  },
  {
    "id": "79",
    "name": "Motherhood Hospital Hebbal",
    "distance": 20.7,
    "latitude": 13.0358,
    "longitude": 77.5972,
    "address": "Hebbal, Bangalore",
    "contact": "+91-80-4855-5003",
    "equipment": ["ICU", "Ventilator", "Oxygen", "Defibrillator", "Cardiac Monitor"],
    "specialties": ["Obstetrics", "Gynecology", "Pediatrics", "Emergency"]
  },
  {
    "id": "80",
    "name": "Manipal Hospital Yeshwanthpur",
    "distance": 21.0,
    "latitude": 13.0307,
    "longitude": 77.5437,
    "address": "Yeshwanthpur, Bangalore",
    "contact": "+91-80-6629-6630",
    "equipment": ["Ventilator", "ICU", "CT Scan", "MRI", "Oxygen", "Defibrillator", "Cardiac Monitor", "Cath Lab"],
    "specialties": ["Cardiology", "Emergency", "Neurology", "Orthopedics"]
  },
  {
    "id": "81",
    "name": "Columbia Asia Hospital Yeshwanthpur",
    "distance": 21.2,
    "latitude": 13.0307,
    "longitude": 77.5437,
    "address": "Yeshwanthpur, Bangalore",
    "contact": "+91-80-6614-5556",
    "equipment": ["ICU", "CT Scan", "X-Ray", "Oxygen", "Defibrillator", "Cardiac Monitor"],
    "specialties": ["Emergency", "General Medicine", "Pediatrics"]
  },
  {
    "id": "82",
    "name": "Sparsh Hospital Rajarajeshwari Nagar Extension",
    "distance": 21.5,
    "latitude": 12.9253,
    "longitude": 77.5214,
    "address": "Rajarajeshwari Nagar, Bangalore",
    "contact": "+91-80-4315-4447",
    "equipment": ["ICU", "CT Scan", "X-Ray", "Oxygen", "Defibrillator", "Cardiac Monitor"],
    "specialties": ["Orthopedics", "Emergency", "Spine Surgery"]
  },
  {
    "id": "83",
    "name": "Fortis Hospital Nagarbhavi",
    "distance": 21.7,
    "latitude": 12.9682,
    "longitude": 77.5101,
    "address": "Nagarbhavi, Bangalore",
    "contact": "+91-80-6621-4448",
    "equipment": ["Ventilator", "ICU", "CT Scan", "MRI", "Oxygen", "Defibrillator", "Cardiac Monitor", "Dialysis"],
    "specialties": ["Cardiology", "Emergency", "Neurology", "Orthopedics"]
  },
  {
    "id": "84",
    "name": "Rainbow Children's Hospital Jayanagar",
    "distance": 22.0,
    "latitude": 12.9259,
    "longitude": 77.5833,
    "address": "Jayanagar, Bangalore",
    "contact": "+91-80-4934-4446",
    "equipment": ["ICU", "Ventilator", "Oxygen", "Defibrillator", "Cardiac Monitor"],
    "specialties": ["Pediatrics", "Neonatology", "Emergency"]
  },
  {
    "id": "85",
    "name": "Apollo Hospitals Koramangala",
    "distance": 22.2,
    "latitude": 12.9310,
    "longitude": 77.6113,
    "address": "Koramangala, Bangalore",
    "contact": "+91-80-2670-1079",
    "equipment": ["Ventilator", "ICU", "CT Scan", "MRI", "Oxygen", "Defibrillator", "Cardiac Monitor", "Cath Lab"],
    "specialties": ["Cardiology", "Emergency", "Neurology", "Oncology"]
  },
  {
    "id": "86",
    "name": "Sakra Hospital Bellandur",
    "distance": 22.5,
    "latitude": 12.9142,
    "longitude": 77.6848,
    "address": "Bellandur, Bangalore",
    "contact": "+91-80-4969-4970",
    "equipment": ["Ventilator", "ICU", "CT Scan", "MRI", "Oxygen", "Defibrillator", "Cardiac Monitor", "Cath Lab", "Dialysis"],
    "specialties": ["Cardiology", "Emergency", "Neurology", "Orthopedics", "Oncology"]
  },
  {
    "id": "87",
    "name": "Cloudnine Hospital Brookefield",
    "distance": 22.7,
    "latitude": 12.9610,
    "longitude": 77.7065,
    "address": "Brookefield, Bangalore",
    "contact": "+91-80-4855-4859",
    "equipment": ["ICU", "Ventilator", "Oxygen", "Defibrillator", "Cardiac Monitor"],
    "specialties": ["Obstetrics", "Gynecology", "Pediatrics", "Emergency"]
  },
  {
    "id": "88",
    "name": "Manipal Hospital Varthur Road",
    "distance": 23.0,
    "latitude": 12.9396,
    "longitude": 77.7501,
    "address": "Varthur Road, Bangalore",
    "contact": "+91-80-6629-6631",
    "equipment": ["Ventilator", "ICU", "CT Scan", "MRI", "Oxygen", "Defibrillator", "Cardiac Monitor", "Cath Lab"],
    "specialties": ["Cardiology", "Emergency", "Neurology", "Orthopedics"]
  },
  {
    "id": "89",
    "name": "Fortis Hospital Banashankari",
    "distance": 23.2,
    "latitude": 12.9253,
    "longitude": 77.5458,
    "address": "Banashankari, Bangalore",
    "contact": "+91-80-6621-4449",
    "equipment": ["Ventilator", "ICU", "CT Scan", "MRI", "Oxygen", "Defibrillator", "Cardiac Monitor", "Dialysis"],
    "specialties": ["Cardiology", "Emergency", "Neurology", "Orthopedics", "Gastroenterology"]
  },
  {
    "id": "90",
    "name": "Sagar Hospital Banashankari II",
    "distance": 23.5,
    "latitude": 12.9253,
    "longitude": 77.5458,
    "address": "Banashankari, Bangalore",
    "contact": "+91-80-2663-1114",
    "equipment": ["Ventilator", "ICU", "CT Scan", "Oxygen", "Defibrillator", "Cardiac Monitor"],
    "specialties": ["Cardiology", "Emergency", "Neurology"]
  },
  {
    "id": "91",
    "name": "Aster CMI Hospital Hebbal",
    "distance": 23.7,
    "latitude": 13.0358,
    "longitude": 77.5972,
    "address": "Hebbal, Bangalore",
    "contact": "+91-80-4344-4446",
    "equipment": ["Ventilator", "ICU", "CT Scan", "MRI", "Oxygen", "Defibrillator", "Cardiac Monitor", "Cath Lab", "Dialysis"],
    "specialties": ["Cardiology", "Emergency", "Neurology", "Gastroenterology"]
  },
  {
    "id": "92",
    "name": "BGS Global Hospital Uttarahalli",
    "distance": 24.0,
    "latitude": 12.8941,
    "longitude": 77.5014,
    "address": "Uttarahalli, Bangalore",
    "contact": "+91-80-2227-7981",
    "equipment": ["Ventilator", "ICU", "CT Scan", "MRI", "Oxygen", "Defibrillator", "Cardiac Monitor", "Cath Lab"],
    "specialties": ["Cardiology", "Emergency", "Neurology", "Oncology"]
  },
  {
    "id": "93",
    "name": "Narayana Multispeciality Hospital Whitefield",
    "distance": 24.2,
    "latitude": 12.9897,
    "longitude": 77.7253,
    "address": "Whitefield, Bangalore",
    "contact": "+91-80-7122-2223",
    "equipment": ["Ventilator", "ICU", "CT Scan", "MRI", "Oxygen", "Defibrillator", "Cardiac Monitor", "Cath Lab"],
    "specialties": ["Cardiology", "Emergency", "Neurology", "Trauma"]
  },
  {
    "id": "94",
    "name": "Apollo Hospitals JP Nagar",
    "distance": 24.5,
    "latitude": 12.9083,
    "longitude": 77.5858,
    "address": "JP Nagar, Bangalore",
    "contact": "+91-80-2670-1080",
    "equipment": ["Ventilator", "ICU", "CT Scan", "MRI", "Oxygen", "Defibrillator", "Cardiac Monitor", "Cath Lab"],
    "specialties": ["Cardiology", "Emergency", "Neurology", "Oncology"]
  },
  {
    "id": "95",
    "name": "Cloudnine Hospital Bellandur",
    "distance": 24.7,
    "latitude": 12.9142,
    "longitude": 77.6848,
    "address": "Bellandur, Bangalore",
    "contact": "+91-80-4855-4860",
    "equipment": ["ICU", "Ventilator", "Oxygen", "Defibrillator", "Cardiac Monitor"],
    "specialties": ["Obstetrics", "Gynecology", "Pediatrics", "Emergency"]
  },
  {
    "id": "96",
    "name": "Fortis Hospital Kadugodi",
    "distance": 25.0,
    "latitude": 13.0110,
    "longitude": 77.7569,
    "address": "Kadugodi, Bangalore",
    "contact": "+91-80-6621-4450",
    "equipment": ["Ventilator", "ICU", "CT Scan", "MRI", "Oxygen", "Defibrillator", "Cardiac Monitor", "Dialysis"],
    "specialties": ["Cardiology", "Emergency", "Neurology", "Orthopedics"]
  },
  {
    "id": "97",
    "name": "Manipal Hospital Sarjapur",
    "distance": 25.2,
    "latitude": 12.9142,
    "longitude": 77.6848,
    "address": "Sarjapur, Bangalore",
    "contact": "+91-80-6629-6632",
    "equipment": ["Ventilator", "ICU", "CT Scan", "MRI", "Oxygen", "Defibrillator", "Cardiac Monitor", "Cath Lab"],
    "specialties": ["Cardiology", "Emergency", "Neurology", "Orthopedics"]
  },
  {
    "id": "98",
    "name": "Sakra World Hospital Marathahalli",
    "distance": 25.5,
    "latitude": 12.9591,
    "longitude": 77.6980,
    "address": "Marathahalli, Bangalore",
    "contact": "+91-80-4969-4971",
    "equipment": ["Ventilator", "ICU", "CT Scan", "MRI", "Oxygen", "Defibrillator", "Cardiac Monitor", "Cath Lab", "Dialysis"],
    "specialties": ["Cardiology", "Emergency", "Neurology", "Orthopedics", "Oncology"]
  },
  {
    "id": "99",
    "name": "Aster RV Hospital JP Nagar",
    "distance": 25.7,
    "latitude": 12.9083,
    "longitude": 77.5858,
    "address": "JP Nagar, Bangalore",
    "contact": "+91-80-6621-2001",
    "equipment": ["Ventilator", "ICU", "CT Scan", "MRI", "Oxygen", "Defibrillator", "Cardiac Monitor", "Dialysis"],
    "specialties": ["Cardiology", "Emergency", "Neurology", "Gastroenterology"]
  },
  {
    "id": "100",
    "name": "Narayana Health City Bommasandra",
    "distance": 26.0,
    "latitude": 12.8941,
    "longitude": 77.6605,
    "address": "Bommasandra, Bangalore",
    "contact": "+91-80-2783-3336",
    "equipment": ["Ventilator", "ICU", "CT Scan", "MRI", "Oxygen", "Defibrillator", "Cardiac Monitor", "Cath Lab", "Dialysis"],
    "specialties": ["Cardiology", "Emergency", "Neurology", "Oncology", "Trauma"]
  }
]
